[
  {
    "slug": "cambridge",
    "title": "Cambridge, MA & Vicinity",
    "lat": 42.3785,
    "lon": -71.1156,
    "maxRadiusKm": 20,
    "latestUrl": "https://goodbirds.org/maps/cambridge/latest.html"
  },
  {
    "slug": "chicago",
    "title": "Chicago, IL and Vicinity",
    "lat": 41.8775122,
    "lon": -87.6252043,
    "maxRadiusKm": 15,
    "latestUrl": "https://goodbirds.org/maps/chicago/latest.html"
  },
  {
    "slug": "manhattan",
    "title": "Manhattan, NY & Vicinity",
    "lat": 40.780902,
    "lon": -73.972943,
    "maxRadiusKm": 12,
    "latestUrl": "https://goodbirds.org/maps/manhattan/latest.html"
  },
  {
    "slug": "portland-or",
    "title": "Portland, OR & Vicinity",
    "lat": 45.526609,
    "lon": -122.730465,
    "maxRadiusKm": 15,
    "latestUrl": "https://goodbirds.org/maps/portland-or/latest.html"
  },
  {
    "slug": "san-diego",
    "title": "San Diego, CA & Vicinity",
    "lat": 32.732375,
    "lon": -117.146884,
    "maxRadiusKm": 15,
    "latestUrl": "https://goodbirds.org/maps/san-diego/latest.html"
  },
  {
    "slug": "greensboro",
    "title": "Greensboro, NC & Vicinity",
    "lat": 36.094567,
    "lon": -79.78455,
    "maxRadiusKm": 15,
    "latestUrl": "https://goodbirds.org/maps/greensboro/latest.html"
  },
  {
    "slug": "philadelphia",
    "title": "Philadelphia, PA & Vicinity",
    "lat": 39.98275,
    "lon": -75.19304,
    "maxRadiusKm": 15,
    "latestUrl": "https://goodbirds.org/maps/philadelphia/latest.html"
  },
  {
    "slug": "colorado-springs",
    "title": "Colorado Springs, CO & Vicinity",
    "lat": 38.89424,
    "lon": -104.83012,
    "maxRadiusKm": 15,
    "latestUrl": "https://goodbirds.org/maps/colorado-springs/latest.html"
  },
  {
    "slug": "pittsburgh",
    "title": "Pittsburgh, PA & Vicinity",
    "lat": 40.5189,
    "lon": -79.9225,
    "maxRadiusKm": 15,
    "latestUrl": "https://goodbirds.org/maps/pittsburgh/latest.html"
  },
  {
    "slug": "minneapolis",
    "title": "Minneapolis, MN & Vicinity",
    "lat": 44.9723,
    "lon": -93.3172,
    "maxRadiusKm": 15,
    "latestUrl": "https://goodbirds.org/maps/minneapolis/latest.html"
  },
  {
    "slug": "san-antonio",
    "title": "San Antonio, TX & Vicinity",
    "lat": 29.2955,
    "lon": -98.4786,
    "maxRadiusKm": 15,
    "latestUrl": "https://goodbirds.org/maps/san-antonio/latest.html"
  },
  {
    "slug": "cape-may",
    "title": "Cape May, NJ & Vicinity",
    "lat": 38.940505,
    "lon": -74.962141,
    "maxRadiusKm": 15,
    "latestUrl": "https://goodbirds.org/maps/cape-may/latest.html"
  },
  {
    "slug": "magee-marsh",
    "title": "Magee Marsh, OH & Vicinity",
    "lat": 41.612529,
    "lon": -83.189286,
    "maxRadiusKm": 15,
    "latestUrl": "https://goodbirds.org/maps/magee-marsh/latest.html"
  },
  {
    "slug": "san-francisco",
    "title": "San Francisco, CA & Vicinity",
    "lat": 37.756344,
    "lon": -122.448917,
    "maxRadiusKm": 15,
    "latestUrl": "https://goodbirds.org/maps/san-francisco/latest.html"
  },
  {
    "slug": "tucson",
    "title": "Tucson, AZ & Vicinity",
    "lat": 32.231584,
    "lon": -110.966819,
    "maxRadiusKm": 15,
    "latestUrl": "https://goodbirds.org/maps/tucson/latest.html"
  },
  {
    "slug": "miami",
    "title": "Miami, FL & Vicinity",
    "lat": 25.704218,
    "lon": -80.284366,
    "maxRadiusKm": 20,
    "latestUrl": "https://goodbirds.org/maps/miami/latest.html"
  },
  {
    "slug": "estero",
    "title": "Estero, FL & Vicinity",
    "lat": 26.433947,
    "lon": -81.815317,
    "maxRadiusKm": 20,
    "latestUrl": "https://goodbirds.org/maps/estero/latest.html"
  },
  {
    "slug": "webster",
    "title": "Webster, NY & Vicinity",
    "lat": 43.217639,
    "lon": -77.441932,
    "maxRadiusKm": 15,
    "latestUrl": "https://goodbirds.org/maps/webster/latest.html"
  },
  {
    "slug": "scarsdale",
    "title": "Scarsdale, NY & Vicinity",
    "lat": 41.00487,
    "lon": -73.808475,
    "maxRadiusKm": 20,
    "latestUrl": "https://goodbirds.org/maps/scarsdale/latest.html"
  },
  {
    "slug": "belmont",
    "title": "Belmont, MA & Vicinity",
    "lat": 42.402405,
    "lon": -71.184395,
    "maxRadiusKm": 15,
    "latestUrl": "https://goodbirds.org/maps/belmont/latest.html"
  },
  {
    "slug": "hartford-vt",
    "title": "Hartford, VT and Vicinity",
    "lat": 43.641886,
    "lon": -72.411335,
    "maxRadiusKm": 10,
    "latestUrl": "https://goodbirds.org/maps/hartford-vt/latest.html"
  },
  {
    "slug": "whitefield-nh",
    "title": "Whitefield, NH and Vicinity",
    "lat": 44.358125,
    "lon": -71.540525,
    "maxRadiusKm": 10,
    "latestUrl": "https://goodbirds.org/maps/whitefield-nh/latest.html"
  },
  {
    "slug": "north-cambridge",
    "title": "North Cambridge, MA and Vicinity",
    "lat": 42.400973,
    "lon": -71.13597,
    "maxRadiusKm": 10,
    "latestUrl": "https://goodbirds.org/maps/north-cambridge/latest.html"
  }
]
