[
  {
    "slug": "cambridge",
    "title": "Cambridge, MA & Vicinity",
    "lat": 42.3785,
    "lon": -71.1156,
    "maxRadiusKm": 20,
    "latestUrl": "https://goodbirds.org/maps/cambridge/latest.html"
  },
  {
    "slug": "chicago",
    "title": "Chicago, IL and Vicinity",
    "lat": 41.8775122,
    "lon": -87.6252043,
    "maxRadiusKm": 15,
    "latestUrl": "https://goodbirds.org/maps/chicago/latest.html"
  },
  {
    "slug": "manhattan",
    "title": "Manhattan, NY & Vicinity",
    "lat": 40.780902,
    "lon": -73.972943,
    "maxRadiusKm": 12,
    "latestUrl": "https://goodbirds.org/maps/manhattan/latest.html"
  },
  {
    "slug": "portland-or",
    "title": "Portland, OR & Vicinity",
    "lat": 45.526609,
    "lon": -122.730465,
    "maxRadiusKm": 15,
    "latestUrl": "https://goodbirds.org/maps/portland-or/latest.html"
  },
  {
    "slug": "estero",
    "title": "Estero, FL & Vicinity",
    "lat": 26.433947,
    "lon": -81.815317,
    "maxRadiusKm": 20,
    "latestUrl": "https://goodbirds.org/maps/estero/latest.html"
  },
  {
    "slug": "webster",
    "title": "Webster, NY & Vicinity",
    "lat": 43.217639,
    "lon": -77.441932,
    "maxRadiusKm": 15,
    "latestUrl": "https://goodbirds.org/maps/webster/latest.html"
  },
  {
    "slug": "scarsdale",
    "title": "Scarsdale, NY & Vicinity",
    "lat": 41.00487,
    "lon": -73.808475,
    "maxRadiusKm": 20,
    "latestUrl": "https://goodbirds.org/maps/scarsdale/latest.html"
  },
  {
    "slug": "belmont",
    "title": "Belmont, MA & Vicinity",
    "lat": 42.402405,
    "lon": -71.184395,
    "maxRadiusKm": 15,
    "latestUrl": "https://goodbirds.org/maps/belmont/latest.html"
  },
  {
    "slug": "north-cambridge",
    "title": "North Cambridge, MA and Vicinity",
    "lat": 42.400973,
    "lon": -71.13597,
    "maxRadiusKm": 10,
    "latestUrl": "https://goodbirds.org/maps/north-cambridge/latest.html"
  }
]
